<?xml version='1.0' encoding='UTF-8'?>
<gpx version="1.1" creator="PyGPX">
  <wpt lat="44.038707" lon="10.68296">
    <ele>500</ele>
    <name>Antro dell’Ugola</name>
    <desc>Antro dell'Ugola</desc>
  </wpt>
  <wpt lat="44.036347" lon="10.683399">
    <ele>500</ele>
    <name>Buca La Piella</name>
    <desc>Buca la Piella</desc>
  </wpt>
  <wpt lat="44.039861" lon="10.669845">
    <ele>500</ele>
    <name>Calendario celtico</name>
    <desc>Calendario celtico</desc>
  </wpt>
  <wpt lat="44.040034" lon="10.670611">
    <ele>500</ele>
    <name>Castello</name>
    <desc>Castello</desc>
  </wpt>
  <wpt lat="44.039277" lon="10.669466">
    <ele>500</ele>
    <name>Chiesa dei SS. Donato e Andrea</name>
    <desc>Chiesa dei SS. Donato e Andrea</desc>
  </wpt>
  <wpt lat="44.03971" lon="10.683432">
    <ele>500</ele>
    <name>Deviazione per Antro dell’Ugola</name>
    <desc>Deviazione per Antro dell’Ugola</desc>
  </wpt>
  <wpt lat="44.03573" lon="10.684268">
    <ele>500</ele>
    <name>Deviazione per Buca La Piella</name>
    <desc>Deviazione per Buca La Piella</desc>
  </wpt>
  <wpt lat="44.035067" lon="10.67663">
    <ele>500</ele>
    <name>Deviazione per Sant’Andrea de Lacu</name>
    <desc>Deviazione per Sant’Andrea de Lacu</desc>
  </wpt>
  <wpt lat="44.036212" lon="10.683582">
    <ele>500</ele>
    <name>Ingresso Buca La Piella</name>
    <desc>Ingresso Buca La Piella</desc>
  </wpt>
  <wpt lat="44.039064" lon="10.672441">
    <ele>500</ele>
    <name>Iscrizione longobarda</name>
    <desc>Iscrizione longobarda</desc>
  </wpt>
  <wpt lat="44.034678" lon="10.677609">
    <ele>500</ele>
    <name>Lago di Casoli</name>
    <desc>Lago di Casoli</desc>
  </wpt>
  <wpt lat="44.039601" lon="10.669938">
    <ele>500</ele>
    <name>Madonna di Castello</name>
    <desc>Madonna di Castello</desc>
  </wpt>
  <wpt lat="44.031732" lon="10.677597">
    <ele>500</ele>
    <name>Madonna di Col di Piano</name>
    <desc>Madonna di Col di Piano</desc>
  </wpt>
  <wpt lat="44.035913" lon="10.677644">
    <ele>500</ele>
    <name>Metato</name>
    <desc>Metato</desc>
  </wpt>
  <wpt lat="44.036332" lon="10.684075">
    <ele>500</ele>
    <name>Riparo sottoroccia lungo percorso Piella</name>
    <desc>Riparo sottoroccia lungo percorso Piella</desc>
  </wpt>
  <wpt lat="44.035298" lon="10.67592">
    <ele>500</ele>
    <name>Sant'Andrea de Lacu</name>
    <desc>Sant'Andrea de Lacu</desc>
  </wpt>
</gpx>
